[{"Address":"ani technologies limited, regent insignia, #414, 3rd floor, 4th block, 17th main, 100 feet road, kormangala, bangalore","LatLong":"12.9164811, 77.63350249999999"},{"Address":"tech mahindra ltd, opp. christ college, no. 9/7, hosur road, karnataka india, kormangala, bangalore","LatLong":"12.9569695, 77.6058238"},{"Address":"house no. 68, 2nd floor, 2nd d main road, 8th block, kormangala, bangalore","LatLong":"12.9195944, 77.57793219999999"},{"Address":"ani technologies limited, regent insignia, #414, 3rd floor, 4th block, 17th main, 100 feet road, kormangala, bangalore","LatLong":"12.9164811, 77.63350249999999"},{"Address":"enzyme jnc business center,mpk mansion,no18,5th block, kormangala, bangalore","LatLong":"12.9352156, 77.6199608"},{"Address":"#746 npr chambers, 2nd floor 80 feet road,4th block, kormangala, bangalore","LatLong":"12.9383587, 77.6260941"},{"Address":"vs vaishnavi summit office flipkart.com, 80 feet main rd, koramangala 1a block, koramangala, kormangala, bangalore","LatLong":"12.9273529, 77.6391039"},{"Address":"tata capital financial services ltd, no 581 80 feet road 8th block, kormangala, bangalore","LatLong":"12.9386769, 77.6260795"},{"Address":"house number 346/2, third floor, opp bethany high school, next to reliance fresh, 8th block, kormangala, bangalore","LatLong":"12.9414686, 77.6178125"},{"Address":"112, serenity 3 rd floor, industrail area, 5th block, near flipkart office, kormangala, bangalore","LatLong":"12.9352156, 77.6199608"},{"Address":", kormangala, bangalore","LatLong":"12.9279232, 77.62710779999999"},{"Address":"t5, wild grass apartment, nirguna mandir layout, near wipro park, kormanagala 1st block, kormangala, bangalore","LatLong":"12.9265132, 77.63615519999999"},{"Address":"7 17 b main, 6th block, kormangala, bangalore","LatLong":"12.9367616, 77.62418950000001"},{"Address":"robert bosch engineering and business solutions limited, kormangala, bangalore","LatLong":"12.9279232, 77.62710779999999"},{"Address":"no 686 1st floor 2nd a main 8th block near shiva theatre, kormangala, bangalore","LatLong":"12.9279232, 77.62710779999999"},{"Address":"raffles millennium international , hm vibha tower, 4th floor, luskar hosur road, kormangala, bangalore","LatLong":"12.9287659, 77.615515"},{"Address":"h.no. 671, devi nilayam, ground floor, 2b main road, 8th block, kormangala, bangalore","LatLong":"12.9268101, 77.573324"},{"Address":"nous infosystems 1st main 1st block near jakkasandra bus stop koramangala, kormangala, bangalore","LatLong":"12.9273529, 77.6391039"},{"Address":"2nd cross nea someshwar temple 7th block bengaluru, kormangala, bangalore","LatLong":"12.9363784, 77.61382909999999"},{"Address":"h.no. 671, devi nilayam, ground floor, 2b main road, 8th block, kormangala, bangalore","LatLong":"12.9268101, 77.573324"},{"Address":"#77,second floor,salarpuria acent,jyothi nivas college road, industrial area, kormangala, bangalore","LatLong":"12.9333877, 77.61535289999999"},{"Address":"ground floor,house no 49, 8th main, venkatpura 8th cross, 1st block, kormangala, bangalore","LatLong":"12.9265132, 77.63615519999999"},{"Address":"il fs education technology services ltd no 309 2 1st floor 1st cross lakshya tower 5th block, kormangala, bangalore","LatLong":"12.9352156, 77.6199608"},{"Address":"sri sai pg for ladies, no. 42/52, 2nd main, 1st cross, c.l. layout, opp. christ college, near forum, behind libra hotel, hosur road, kormangala, bangalore","LatLong":"12.9287659, 77.615515"},{"Address":"584/c, 17d main, 6th cross 6th block, landmark sony signal/ club, kormangala, bangalore","LatLong":"12.9381689, 77.6237191"},{"Address":"teamlease services pvt ltd, 6th floor, bmtc commercial complex, 80 feet road,6th block, kormangala, bangalore","LatLong":"12.9404986, 77.6202318"},{"Address":"#739, 17th b main, 6th block, kormangala, bangalore","LatLong":"12.9364352, 77.62374679999999"},{"Address":"112, serenity 3 rd floor, industrail area, 5th block, near flipkart office, kormangala, bangalore","LatLong":"12.9352156, 77.6199608"},{"Address":"flipkart internet private limited esteem asrani, plot no 3k, industrial layout sarjapur road pincode lm opp to krupan, kormangala, bangalore","LatLong":"12.9279232, 77.62710779999999"},{"Address":"#142, 2nd d main cross, adugodi road, 8th block koramangala, opp corporation bank, kormangala, bangalore","LatLong":"12.9410787, 77.6177122"},{"Address":"112, serenity 3 rd floor, industrail area, 5th block, near flipkart office, kormangala, bangalore","LatLong":"12.9352156, 77.6199608"},{"Address":"room 201, halcyon hotel, no. 9, drafadilla layout, 4th block, koramangala, bengaluru, kormangala, bangalore","LatLong":"12.9314583, 77.6299858"},{"Address":"6/b , 7th main , 80 feet road , 3rd block , kormanagla, kormangala, bangalore","LatLong":"12.9254529, 77.6326069"},{"Address":"113 building 3rd cross 7th block, kormangala, bangalore","LatLong":"12.936882, 77.614345"},{"Address":"#849, 1st floor, 4th a cross, 11th main, 4th block, kormangala, bangalore","LatLong":"12.9650419, 77.592896"},{"Address":"balaji ladies pg no.21,3rd cross v.g.s layout koramangala egipura near sony signal, kormangala, bangalore","LatLong":"12.9279232, 77.62710779999999"},{"Address":"#403, vandana jasmine apartments, venkatapura, kormangala, bangalore","LatLong":"12.9199543, 77.6256895"},{"Address":"no.111,bmc building, 5th block,opposite shoppers stop, kormangala, bangalore","LatLong":"12.9352156, 77.6199608"},{"Address":"#114 a4 cauvery block, national games village, kormangala, bangalore","LatLong":"12.9468954, 77.6210511"},{"Address":"rk complex, 3rd floor, 60ft road, khb colony, 5th block, near apollo cradle hospital, kormangala, bangalore","LatLong":"12.9363837, 77.6209592"},{"Address":"1211, embassy habitat near mount carmel college, palace cross road, kormangala, bangalore","LatLong":"12.9921971, 77.5885996"},{"Address":"111 a kms residency tavarekere main road near icici bank atm, kormangala, bangalore","LatLong":"12.9279232, 77.62710779999999"},{"Address":"552/26 k.r.garden 8th block, near national dairy development board, karnataka, kormangala, bangalore","LatLong":"12.928062, 77.5935322"},{"Address":"no783. 1 floor 8 block, kormangala, bangalore","LatLong":"12.9279232, 77.62710779999999"},{"Address":"113 building 3rd cross 7th block, kormangala, bangalore","LatLong":"12.936882, 77.614345"},{"Address":"123, industrial layout, hosur main road, koramangala 7th block, koramangala, bengaluru, karnataka, kormangala, bangalore","LatLong":"12.9354159, 77.6145248"},{"Address":"#108,2nd main,3 cross,c.l.layout,near forum, kormangala, bangalore","LatLong":"12.9347841, 77.6123186"},{"Address":"kasareva,first floor,60b, 17th d main road,6th block, kormangala, bangalore","LatLong":"12.9363732, 77.622793"},{"Address":"sri durga pg, #8/1, opp police station, 8th block, kormangala, bangalore","LatLong":"12.9582448, 77.5772947"},{"Address":"#142, 2nd d main cross, adugodi road, 8th block koramangala, opp corporation bank, kormangala, bangalore","LatLong":"12.9410787, 77.6177122"},{"Address":"raffles millennium international , hm vibha tower, 4th floor, luskar hosur road, kormangala, bangalore","LatLong":"12.9287659, 77.615515"},{"Address":"g 02, sahar palace apartments, 3 / c, 7th c main rd, block 3, near toshiba office, koramangala, kormangala, bangalore","LatLong":"12.9273529, 77.6391039"},{"Address":"584/c, 17d main, 6th cross 6th block, landmark sony signal/ club, kormangala, bangalore","LatLong":"12.9381689, 77.6237191"},{"Address":"flipkart office, ashford building, 80 feet road,koramangala 1a block, kormangala, bangalore","LatLong":"12.9269516, 77.6333866"},{"Address":"584/c, 17d main, 6th cross 6th block, landmark sony signal/ club, kormangala, bangalore","LatLong":"12.9381689, 77.6237191"},{"Address":"#350 6th block, 18th main kormagala, banglore, land mark bus depot / devi eye hospital, kormangala, bangalore","LatLong":"12.9410407, 77.623294"},{"Address":"dreamorbit softech pvt ltd, 2nd floor, ascend, 17th main road, 5th block, kormangala, bangalore","LatLong":"12.9346049, 77.62383319999999"},{"Address":"sri durga pg, #8/1 ,8th block,opposite police station, kormangala, bangalore","LatLong":"12.9582448, 77.5772947"},{"Address":"#28, 4th b cross, industrial layout, on top of truffles, kormangala, bangalore","LatLong":"12.9340426, 77.61548619999999"},{"Address":"tech mahindra ltd, opp. christ college, no. 9/7, hosur road, karnataka india, kormangala, bangalore","LatLong":"12.9569695, 77.6058238"},{"Address":"28, room no. 204, 27th main, 6 th cross, v.g.s layout, ejipura, kormangala, bangalore","LatLong":"12.9383453, 77.6235624"},{"Address":"tata capital financial services ltd, no 581 80 feet road 8th block, kormangala, bangalore","LatLong":"12.9386769, 77.6260795"},{"Address":"flipkart internet pvt ltd, #30, salarpuria tech point, 7th floor, oasis mall, 100ft road, intermediate ring road, kormangala, bangalore","LatLong":"12.9164811, 77.63350249999999"},{"Address":"house no 309, first floor, 7th b main, 4th block, kormangala, bangalore","LatLong":"12.9253449, 77.63363369999999"},{"Address":", value point system pvt. ltd , 66, st. johns wood road, opp oracle lexington, koramangala, kormangala, bangalore","LatLong":"12.9273529, 77.6391039"},{"Address":"no 63, 3rd cross, 17th main, 2nd block, kormangala, bangalore","LatLong":"12.9352125, 77.6262146"},{"Address":"7 17 b main, 6th block, kormangala, bangalore","LatLong":"12.9367616, 77.62418950000001"},{"Address":"76, 4th cross, churchstreet, 6th block, kormangala, bangalore","LatLong":"12.9947502, 77.67938579999999"},{"Address":"g 02, sahar palace apartments, 3 / c, 7th c main rd, block 3, near toshiba office, koramangala, kormangala, bangalore","LatLong":"12.9273529, 77.6391039"},{"Address":"#896 17th main 6th block near club, kormangala, bangalore","LatLong":"12.9374186, 77.6243939"},{"Address":"#71, om sai ram pg, 16th a main, 4th b block, kormangala, bangalore","LatLong":"12.9310391, 77.6247683"},{"Address":"tibet mall shop no g,8, opp jyoti nivas college , koramangala, kormangala, bangalore","LatLong":"12.9273529, 77.6391039"},{"Address":"aci worldwide solutions pvt. ltd, salarpuria cambridge mall, #9, cambridge road, ulsoor, landmark near halsuru metro station opp. st. anne school, kormangala, bangalore","LatLong":"12.9744578, 77.62574959999999"},{"Address":"house no#348/1,hari nivas,2nd floor, 8th block, 1st main, near bethany high school, kormangala, bangalore","LatLong":"12.9442067, 77.6189199"},{"Address":" 7th block ,5th cross , oppsite of star bzzar, door number, kormangala, bangalore","LatLong":"12.9279232, 77.62710779999999"},{"Address":"crystal rock apt,3rd main ,2nd cross,c.l layout, kormangala, bangalore","LatLong":"12.9725478, 77.6949612"},{"Address":"#142, 2nd d main cross, adugodi road, 8th block koramangala, opp corporation bank, kormangala, bangalore","LatLong":"12.9410787, 77.6177122"},{"Address":"#58/1,2nd floor,80ft road, 7th block, kormangala, bangalore","LatLong":"12.9363377, 77.61675319999999"},{"Address":"aci worldwide solutions pvt. ltd, salarpuria cambridge mall, #9, cambridge road, ulsoor, landmark near halsuru metro station opp. st. anne school, kormangala, bangalore","LatLong":"12.9744578, 77.62574959999999"},{"Address":"infogain india pvt. lts, #7, 18th main road, 7th block koramangala, kormangala, bangalore","LatLong":"12.936285, 77.6127996"},{"Address":"vrr legacy no 2, 1st main, 1st block, jakksandra extn, kormangala, bangalore","LatLong":"12.926719, 77.63768089999999"},{"Address":"jaro education, no 16, kmc arcade, 1st floor, next to hdfc bank, 100 feet inner ring road, , ejipura, kormangala, bangalore","LatLong":"12.9247325, 77.6186378"},{"Address":"toshiba global solutions india pvt ltd, infinix pearl, no.17/2, 7th b main road, 3rd block, kormangala, bangalore","LatLong":"12.9313225, 77.58172549999999"},{"Address":"b2, 124, malaprabha block, ngv, kormangala, bangalore","LatLong":"12.9449438, 77.6247033"},{"Address":", tavant technologies, salapuria ascent, no. 77, 3rd floor, jyothi nivas college road, 5 th block koramangala, kormangala, bangalore","LatLong":"12.9273529, 77.6391039"},{"Address":"tanya residency, # 66/67, 17th main, 6th block,, land mark near club, kormangala, bangalore","LatLong":"12.937625, 77.6242262"},{"Address":"ground floor,house no 49, 8th main, venkatpura 8th cross, 1st block, kormangala, bangalore","LatLong":"12.9265132, 77.63615519999999"},{"Address":"#71, om sai ram pg, 16th a main, 4th b block, kormangala, bangalore","LatLong":"12.9310391, 77.6247683"},{"Address":"flipkart india pvt ltd. vaishnavi summit, 6/b, 7th main, 80 feet road,3rd block, kormangala, bangalore","LatLong":"12.9254529, 77.6326069"},{"Address":"ani technologies pvt ltd, svr layout,off 80ft road, kormangala, bangalore","LatLong":"12.9376388, 77.6266169"},{"Address":"sun river, embassy golf link park, intermediate ring road, kormangala, bangalore","LatLong":"12.9164811, 77.63350249999999"},{"Address":"552/26 k.r.garden 8th block, near national dairy development board, karnataka, kormangala, bangalore","LatLong":"12.928062, 77.5935322"},{"Address":"#894, 7th a main, 1st cross , 1st block, kormangala, bangalore","LatLong":"12.9303747, 77.63016429999999"},{"Address":", flipkart office, 7th floor, oasis centre, 30, salarpuria tech point, inner ring road koramangala, kormangala, bangalore","LatLong":"12.9273529, 77.6391039"},{"Address":"rk complex, 3rd floor, 60ft road, khb colony, 5th block, near apollo cradle hospital, kormangala, bangalore","LatLong":"12.9363837, 77.6209592"},{"Address":"no 204 , aarav homes , ashiwni layout , ejipura ,bagalore, kormangala, bangalore","LatLong":"12.9404088, 77.6282335"},{"Address":"416, block a5,malaprabha building, national games village, kormangala, bangalore","LatLong":"12.9449438, 77.6247033"},{"Address":"cst vidhya bhavan , opp. christ school, s.g palaya, kormangala, bangalore","LatLong":"13.0163488, 77.68070089999999"},{"Address":"#58/1,2nd floor,80ft road, 7th block, kormangala, bangalore","LatLong":"12.9363377, 77.61675319999999"},{"Address":"112, serenity 3 rd floor, industrail area, 5th block, near flipkart office, kormangala, bangalore","LatLong":"12.9352156, 77.6199608"}]